@lat	@lon	railway:ref	name
50.0767294	14.8666360	530667	Český Brod
50.0646620	14.4478477	572768	Praha-Vršovice
50.4265504	14.2637508	542571	Roudnice nad Labem
50.1016717	15.1935841	533141	Velký Osek
50.6498817	14.0485712	532093	Ústí nad Labem-Střekov
50.6642849	14.0814307	531996	Ústí nad Labem sever
49.9494991	14.6779555	550061	Strančice
49.9974063	14.6640482	549865	Říčany
49.9705275	14.3996798	555367	Praha-Zbraslav
50.1122895	14.4974889	573162	Praha-Vysočany
50.0338963	14.5914024	549568	Praha-Uhříněves
50.1229753	14.5709721	547661	Praha-Satalice
49.9859071	14.3642264	532564	Praha-Radotín
50.0342236	14.4459764	571562	Praha-Krč
50.0969717	14.3995609	570663	Praha-Dejvice
50.6706571	14.1568211	557694	Povrly
49.7515904	13.3036809	748152	Plzeň-Křimice
49.8611416	12.7302990	749457	Planá u Mariánských Lázní
50.2625417	14.5174506	546861	Neratovice
50.2046250	14.5135623	547265	Měšice u Prahy
49.9569907	12.6945228	744052	Mariánské Lázně
50.0253511	15.2144986	534149	Kolín
50.8464371	14.2151573	556399	Dolní Žleb
50.3888608	14.4365745	543066	Dolní Beřkovice
49.9275426	14.2882035	532267	Dobřichovice
50.4913108	14.1494553	559096	Bohušovice nad Ohří
50.0822727	14.5981792	530162	Praha-Běchovice
50.1006911	14.5022882	571760	Praha-Libeň
50.0747548	14.7230354	530469	Úvaly
50.0023067	15.9459505	536730	Moravany
49.9949300	16.1083845	536938	Zámrsk
49.9937377	16.2232836	538132	Choceň
50.0002795	16.2838866	538439	Brandýs nad Orlicí
50.1502184	15.5021909	530600	Nové Město nad Cidlinou
50.1401053	15.2636622	530113	Dobšice nad Cidlinou
49.4820329	17.3374129	331421	Brodek u Přerova
50.0455637	15.7428026	546135	Pardubice-Rosice nad Labem
50.0631640	14.4067061	584862	Praha-Smíchov severní nástupiště
49.7436822	13.3877984	732750	Plzeň hlavní nádraží
50.3058334	14.6038574	545517	Byšice
49.2479639	15.7708281	354456	Okříšky
48.8585550	13.8207980	739425	Stožec
48.7899072	13.9534565	758920	Nová Pec
48.9244571	14.4495592	753525	Včelná
48.9270273	14.4440054	760926	Boršov nad Vltavou
48.9745823	14.4885748	732826	České Budějovice
49.2034876	13.8858159	750323	Strunkovice nad Volyňkou
49.1702226	13.8929163	750521	Volyně
49.3531406	14.7065955	736025	Planá nad Lužnicí
49.2114833	15.8844310	365551	Třebíč
49.2224600	16.0690360	362251	Studenec
49.2152628	15.8044570	344556	Krahulov
50.3236561	14.7013610	545319	Kropáčova Vrutice
50.3398199	14.8101816	544817	Chotětov
50.1901921	12.6247522	764654	Svatava
50.3850478	13.1963121	535195	Klášterec nad Ohří
49.1951245	15.8042871	769059	Stařeč
49.1495103	15.8258046	342956	Kojetice na Moravě
50.1599345	14.3984616	544668	Roztoky u Prahy
49.7766829	16.9430951	342824	Mohelnice
50.3118321	12.5187372	765255	Kraslice předměstí
50.2303850	12.8639839	745851	Karlovy Vary dolní nádraží
50.2019073	12.8375933	745653	Karlovy Vary-Březová
49.9566253	12.7849823	744458	Ovesné Kladruby
50.0182497	12.8220058	744854	Poutnov
50.1158921	12.8480910	743153	Krásný Jez
50.1514385	12.8486213	745356	Teplička u Karlových Varů
49.5292290	16.9578407	357756	Ptení
50.2189698	12.1834191	730150	Aš město
49.8154753	13.0468659	754457	Trpísty
50.3308170	12.5024460	765354	Kraslice
49.2446188	14.1086348	734129	Ražice
50.1954776	14.8428770	531145	Lysá nad Labem
50.5544122	13.7722997	548198	Bílina
49.5090733	17.0650384	343855	Kostelec na Hané
49.5134800	17.0967632	332924	Čelechovice na Hané
49.7131629	13.3368915	753152	Plzeň-Valcha
49.6166914	17.2239023	343921	Olomouc-Řepčín
50.0176820	17.0666720	348920	Sobotín
49.1188575	16.3466388	354852	Oslavany
49.8937635	13.3749579	751057	Kaznějov
49.7176152	12.7785392	765750	Bor
49.7298161	13.2846196	746750	Vejprnice
49.3993066	12.8683947	747956	Babylon
50.6092558	13.8784995	551390	Úpořiny
50.3612962	13.8232110	545996	Louny
49.4976070	13.6088141	739250	Nepomuk
49.3051688	13.7789330	761528	Střelské Hoštice
49.3913786	13.6203133	738955	Pačejov
49.2951753	13.4358261	736652	Kolinec
49.1111581	13.8291463	750927	Čkyně
48.9830197	13.7746457	751628	Kubova Huť
48.8102966	16.3832887	339259	Hrušovany nad Jevišovkou
48.7714983	14.1828673	759720	Hořice na Šumavě
48.7986248	14.1479747	759621	Polná na Šumavě
49.0208984	15.6571177	350850	Třebelovice
49.0158183	15.5815910	341859	Jemnice
49.7666971	15.9016053	548537	Hlinsko v Čechách
49.9013161	15.9108839	546937	Chrast u Chrudimi
50.6582066	14.0297497	531590	Ústí nad Labem západ
50.7958183	14.4138754	562991	Česká Kamenice
50.0609378	14.4081638	572263	Praha-Smíchov
49.4352397	12.9433034	735159	Domažlice
49.3457648	16.0218745	366856	Velké Meziříčí
49.9670777	14.0835110	760843	Beroun-Závodí
50.0893984	16.7209320	534602	Dolní Lipka
50.0263514	16.9013734	330720	Bohdíkov
49.9838417	16.8887974	348128	Ruda nad Moravou
50.6642471	14.1462671	560599	Velké Březno
48.7508152	16.8519292	356857	Poštorná
49.1131373	17.1614748	343657	Koryčany
50.5160992	14.7293918	568899	Bezděz
49.5873127	17.2443315	344028	Olomouc-Nová Ulice
49.5831629	17.0793796	334524	Drahanovice
49.9337962	17.4371250	352229	Valšov
49.8384396	17.3949224	333229	Dětřichov nad Bystřicí
49.7845282	17.4321821	343020	Moravský Beroun
49.6696651	17.4385553	337527	Hrubá Voda
49.6475954	17.4084865	335927	Hlubočky
50.1242713	12.3553676	740050	Františkovy Lázně
50.1861476	12.6444602	764555	Sokolov
50.2356364	12.8670454	758755	Karlovy Vary
50.5272737	14.6744460	568790	Okna
48.6340082	14.2440290	748129	Lipno nad Vltavou
49.0650593	14.3622816	733121	Zliv
49.0324707	14.4201410	733022	Hluboká nad Vltavou
50.4566745	13.3991122	534891	Chomutov
50.3958692	13.4210638	537191	Březno u Chomutova
49.9011907	18.0940855	334243	Háj ve Slezsku
49.9009258	18.1943670	335042	Hlučín
49.9887954	18.1131825	335943	Chuchelná
49.9385285	17.8886962	342345	Opava západ
50.0889848	17.6832900	339044	Krnov
50.0521122	17.6117847	331223	Brantice
50.0142906	17.5576211	342527	Milotice nad Opavou
49.8775941	17.8759645	335745	Hradec nad Moravicí
50.0712411	17.0864992	339622	Loučná nad Desnou
50.0886293	17.0911418	339721	Loučná nad Desnou-Rejhotice
50.0988743	17.1044631	339523	Kouty nad Desnou
49.9056690	15.4607290	554840	Skovice
49.8720293	15.5762511	554139	Třemošnice
50.2218333	15.8596814	531400	Hradec Králové-Slezské Předměstí
50.1548444	16.0736745	531806	Týniště nad Orlicí
50.0648063	16.1358466	540708	Čermná nad Orlicí
50.0318287	16.1788815	540807	Újezd u Chocně
49.5348823	15.3481891	558130	Humpolec
50.3339955	15.2605461	563007	Kopidlno
49.1064061	14.3011145	733329	Dívčice
49.1956571	14.3465591	740324	Temelín
50.0470959	16.7464801	535203	Červená Voda
49.0192726	15.1110196	744623	Nová Bystřice
49.0453295	15.1583741	744425	Hůrky
49.0660241	15.1577778	744326	Senotín
49.1120656	15.1628042	744128	Kunžak-Lomy
49.1342471	15.1348486	744029	Střížovice
50.1836480	17.0507990	344721	Ostružná
50.2788227	17.2599592	345629	Písečná
50.3024303	17.3201585	342329	Mikulovice
50.3623579	17.1268978	337725	Velká Kraš
50.2548305	12.8865371	734459	Dalovice
50.5869984	16.0847731	573402	Janovice u Trutnova
50.6154550	16.1242687	573501	Adršpach
50.6677103	15.1000366	542720	Hodkovice nad Mohelkou
49.0361323	17.7953879	331850	Bojkovice
49.0962910	17.9261740	331454	Bohuslavice nad Vláří
50.0735014	12.3807500	750356	Cheb
49.0676430	18.0138828	335356	Bylnice
50.7402006	15.2438627	550228	Smržovka
49.3572172	15.4821290	758409	Kostelec u Jihlavy
49.3111787	15.3245682	758029	Horní Cerekev
49.0859835	15.4392042	748822	Dačice
50.2849557	14.0782171	537563	Zlonice
50.1280672	14.1134892	535161	Kladno
49.2129350	14.2106485	733824	Protivín
49.9134627	17.3828726	332320	Břidličná
50.0373155	17.5159887	342626	Kunov
50.0666027	17.4734536	354027	Široká Niva
49.7752835	17.1846300	351221	Újezd u Uničova
50.1284958	16.1735483	532002	Častolovice
50.4262590	15.5772519	564807	Lázně Bělohrad
50.6043389	15.5138460	571604	Jilemnice
50.6233377	15.5014461	571901	Hrabačov
50.5268403	15.3740069	557801	Lomnice nad Popelkou
49.6981538	15.2700598	561951	Ledeč nad Sázavou
49.4417394	14.3778402	755520	Milevsko
49.1451243	14.1800109	737627	Vodňany
49.1263901	14.0839587	737924	Bavorov
50.1175906	16.2823290	541607	Vamberk
49.1719093	15.0330918	744722	Horní Skrýchov
49.3048039	15.0428903	745620	Včelnička
49.3417089	14.9842910	745828	Chválkov
49.3869069	14.9385029	746123	Křeč
49.7136349	17.7580219	341743	Heřmánky
49.7991735	17.6676603	330944	Svatoňovice
50.2235439	17.6087171	349142	Liptaň
50.2121456	17.6835168	343541	Slezské Rudoltice
50.2682098	17.7224544	342949	Osoblaha
50.3533665	14.4918092	530188	Mělník
49.7372102	13.3745841	752956	Plzeň zastávka
48.8292305	13.7937424	739524	Nové Údolí
49.9175544	17.9582417	342048	Opava-Komárov
49.7853825	13.4976463	732453	Chrást u Plzně
49.5812151	13.5313423	739557	Blovice
48.8504082	14.3514248	760223	Zlatá Koruna
49.4144538	15.5990365	342154	Jihlava
49.5507871	13.5739456	739458	Ždírec u Plzně
49.2693973	13.8234401	761320	Katovice
49.2515434	14.0158684	734327	Čejetice
48.6018001	14.4219480	752220	Horní Dvořiště
49.9031404	12.9695598	755157	Bezdružice
48.8130150	14.2654059	759928	Kájov
49.3056882	15.7492420	332551	Bransouze
49.3695794	15.7099496	347856	Luka nad Jihlavou
49.3174835	15.3982382	758201	Batelov
48.7427481	14.0868927	759225	Černá v Pošumaví
49.5336822	17.3054291	334821	Grygov
50.4305040	15.3612725	554204	Jičín
49.9129688	18.0057730	348540	Štítina
49.4457951	14.5988690	755025	Balkova Lhota
50.0182283	17.7771158	346643	Skrochovice
49.4437151	13.7900937	747022	Lnáře
49.4569092	13.7442156	746834	Kasejovice
50.0841721	14.3121812	572065	Praha-Ruzyně
48.7751404	14.4688272	752725	Kaplice
50.2546128	12.5582596	765057	Oloví
50.2870409	12.5354560	765156	Rotava
49.8312973	12.9812987	754655	Cebiv
49.9466871	12.7426745	744250	Vlkovice
50.0697080	15.9926572	555136	Holice
48.7994496	14.1203132	759522	Polečnice
48.9046261	14.3314086	760629	Křemže
49.0201601	13.7355975	751420	Lipka
49.0928349	13.8008633	751123	Bohumilice v Čechách
49.1605386	14.2743173	739920	Záboří u Číčenic
49.8048269	17.0763989	350025	Troubelice
49.9756381	12.8599577	744656	Teplá
49.8422238	18.1956843	344440	Ostrava-Třebovice
49.9230243	18.1195485	333047	Dolní Benešov
49.9939917	17.4742764	331629	Bruntál
49.9713649	16.3779821	538637	Ústí nad Orlicí
50.0897220	15.0275990	531160	Pečky
50.0676410	15.1247845	531566	Velim
49.9618569	15.3003929	540146	Kutná Hora hlavní nádraží
49.8786116	17.0622520	339820	Libina
49.9458865	17.0344445	343525	Nový Malín
50.4526776	14.3616386	542878	Hněvice
50.0942799	14.2117128	536367	Jeneč
49.2641031	14.1317394	756627	Putim
50.0322548	14.3094920	549261	Praha-Řeporyje
50.5729651	14.0363955	558197	Prackovice nad Labem
49.3709848	17.6317240	335950	Hlinsko pod Hostýnem
49.1549756	15.0056269	007013	Jindřichův Hradec - místní nádraží
50.2093124	12.2009150	730051	Aš
49.7885105	13.0905552	754259	Pňovany
49.5928838	17.2782973	343624	Olomouc hlavní nádraží
50.9569277	14.5507669	564591	Rumburk
50.1043434	15.7576103	568907	Stéblová
49.4289295	14.9534616	746321	Obrataň
50.0719525	16.9294869	335422	Hanušovice
49.6769427	16.7451680	340372	Chornice
49.9101406	16.9230287	355123	Postřelmov
49.9619376	16.9831313	349720	Šumperk
49.8506705	18.2670720	343640	Ostrava hl.n.
49.8970763	16.4466776	539130	Česká Třebová
50.0317084	15.7560881	536136	Pardubice hlavní nádraží
50.1106578	14.4397509	572560	Praha-Holešovice
50.0830349	14.4361450	570762	Praha hlavní nádraží
49.5376948	18.3934553	344648	Ostravice
50.6398053	15.2651684	565820	Železný Brod
49.5419705	18.2241358	333344	Frenštát pod Radhoštěm
49.6512007	18.3694494	330241	Baška
49.5890914	18.3547243	333542	Frýdlant nad Ostravicí
49.5210205	18.0166035	336222	Hostašovice
49.5349843	18.2950275	339341	Kunčice pod Ondřejníkem
49.5289492	18.0683397	336628	Mořkov hlavní trať
49.6169763	18.3621180	333948	Pržno
49.5370061	18.1328957	349845	Veřovice
49.6779422	18.3539702	333443	Frýdek-Místek
49.6981655	18.3280076	339747	Lískovec u Frýdku
49.8291097	18.2825585	343947	Ostrava střed
49.7905611	18.2908855	344143	Ostrava-Kunčice
49.7364188	18.3036466	345140	Paskov
49.7707093	18.3026196	350348	Vratimov
49.7931321	18.5245929	330142	Albrechtice u Českého Těšína
49.7913746	18.4126711	334540	Havířov
49.7786515	18.3400288	344242	Ostrava-Bartovice
49.8011270	18.2622887	350447	Ostrava-Vítkovice
49.5652988	17.7421592	337220	Hranice na Moravě
49.4745077	17.9613005	351627	Valašské Meziříčí
49.4473851	17.4453187	346627	Přerov
50.4720622	14.9231465	543611	Bakov nad Jizerou
50.5455976	15.0360647	543413	Březina nad Jizerou
50.5586356	15.0567115	543215	Loukov u Mnichova Hradiště
50.4476343	14.8872825	544411	Mladá Boleslav-Debř
50.5791042	15.0786597	543322	Příšovice
50.5873500	15.1388096	543009	Turnov
49.7491462	18.1505138	336545	Jistebník
49.8211155	18.2093443	344341	Ostrava-Svinov
49.5745259	17.8554807	345447	Polom
49.7073186	18.0668087	346940	Studénka
49.6425064	17.9388691	348045	Suchdol nad Odrou
49.9010551	18.3593228	341248	Bohumín
49.9001077	18.4661059	332742	Dětmarovice
49.8557795	18.5271698	336743	Karviná hlavní nádraží
49.7953775	18.5870662	339846	Louky nad Olší
49.8937154	18.5499971	345249	Petrovice u Karviné
49.5954578	18.1470862	337048	Kopřivnice
49.6358279	18.1424591	345744	Příbor
49.5827493	18.1323753	348748	Štramberk
49.7813834	18.5978925	332445	Chotěbuz
49.6874843	18.6619524	349241	Třinec
49.7018874	18.6413604	349340	Třinec-Konská
49.7436938	18.6229519	332346	Český Těšín
50.2824571	14.5849755	530147	Všetaty
49.6706867	18.4143714	332841	Dobrá u Frýdku-Místku
49.6785089	18.5389970	335141	Hnojník
50.2096457	14.6922699	530444	Stará Boleslav
50.2144692	15.8105901	531202	Hradec Králové hlavní nádraží
49.7534762	18.0141835	330647	Bílovec
49.5987705	18.0086874	341446	Nový Jičín město
48.6239410	14.3086780	747725	Vyšší Brod klášter
49.6363087	18.7175516	331041	Bystřice (Bystrzyca)
49.5242898	18.7515800	341040	Mosty u Jablunkova
49.5901961	18.7545318	336248	Návsí (Nawsie)
49.7134805	17.9125472	334045	Fulnek
49.4603341	18.1346342	347823	Rožnov pod Radhoštěm
49.5458407	17.7415914	337329	Hranice na Moravě město
49.5236818	17.8643929	338129	Hustopeče nad Bečvou
49.5038392	17.9328271	352021	Lhotka nad Bečvou
49.5521802	17.6824583	334722	Drahotuše
49.5290594	17.5729994	340422	Lipník nad Bečvou
49.5032673	17.4847822	346528	Prosenice
49.3691952	17.3613195	341057	Chropyně
49.3456117	17.3045570	343061	Kojetín
49.3358810	17.1612530	352856	Nezamyslice
49.3446971	17.2165324	352351	Němčice nad Hanou
49.4082002	17.4161885	341156	Věžky
49.3061204	17.0873922	341453	Ivanovice na Hané
49.2158687	16.8993421	343558	Komořany u Vyškova
49.2487053	16.9228644	348151	Luleč
49.1972970	16.8675465	359059	Rousínov
49.2784123	16.9919145	368951	Vyškov na Moravě
49.3164641	17.4767310	339853	Hulín
49.3020525	17.4027474	344754	Kroměříž
49.2533996	17.2830513	369454	Zborovice
49.2288784	17.3156274	369355	Zdounky
49.2025193	17.5316559	355750	Otrokovice
49.2540450	17.5013205	364752	Tlumačov
49.3790711	17.4536969	359562	Říkovice
49.2200846	17.8429245	368050	Vizovice
49.2262602	17.6585683	337550	Zlín střed
49.2099311	17.5993243	337451	Zlín-Malenovice
49.3932234	17.6653344	335851	Bystřice pod Hostýnem
49.3272424	17.5708454	338558	Holešov
49.4104703	17.7151478	336057	Loukov
49.3175727	17.5195084	340059	Třebětice
48.7539713	16.8932662	334250	Břeclav
49.4594368	17.9058081	332361	Branky na Moravě
49.4401627	17.8185175	346361	Kunovice-Loučka
49.4231724	17.7422872	354753	Osíčko
49.4320976	17.7973224	346460	Rajnochovice
49.1639815	16.7982989	331256	Blažovice
49.1320434	16.6568156	340752	Brno-Chrlice
49.1799823	16.8244906	338855	Holubice
49.1434786	16.8248913	345454	Křenovice horní nádraží
49.1082302	16.7335320	361253	Sokolnice-Telnice
49.1696673	16.6824238	333658	Brno-Slatina
49.1569132	16.7296932	363457	Šlapanice
49.8583883	13.5965009	741553	Radnice
49.1911221	16.6131116	332957	Brno hlavní nádraží
49.1674150	16.6067950	333054	Brno-Horní Heršpice
49.2043077	16.6368668	333955	Brno-Židenice
49.2306772	16.5961590	333153	Brno-Královo Pole
49.3354549	17.9940931	354423	Vsetín
48.7808577	16.0260818	362756	Šatov
48.8528301	16.0586768	369553	Znojmo
49.8804531	18.1711427	332643	Děhylov
49.9482667	15.7868180	546531	Chrudim
49.9574045	14.0763402	730747	Beroun
50.0548886	14.5378599	570960	Praha-Hostivař
49.7403954	17.4448367	334227	Domašov nad Bystřicí
49.8970963	14.7276172	550269	Senohraby
49.8505052	14.7016531	550467	Čerčany
49.7797683	14.6826261	551069	Benešov u Prahy
50.1489310	14.5193465	573360	Praha-Čakovice
49.4723558	14.6692441	552760	Chotoviny
50.1652837	15.7888882	568808	Opatovice nad Labem-Pohřebačka
50.5096914	14.0595830	558593	Lovosice
50.0277133	14.4065333	570168	Praha-Braník
50.6594342	14.0445164	531798	Ústí nad Labem hlavní nádraží
49.3226777	16.2132939	368456	Vlkov u Tišnova
49.8721465	16.8870404	355024	Zábřeh na Moravě
48.8223939	14.3174299	760025	Český Krumlov
49.4545803	16.3360180	352153	Nedvědice
50.1633770	15.4574566	530501	Chlumec nad Cidlinou
49.4285378	14.9534057	007021	Obrataň-JHMD
48.9044924	17.0399060	351452	Mutěnice
49.3009927	16.5346371	346551	Kuřim
49.7149724	13.2094773	745950	Nýřany
48.6495664	14.4316793	752339	Rybník
49.9298251	17.2842644	348326	Rýmařov
50.3352100	14.3716220	543264	Vraňany
49.2953894	16.6634542	330159	Adamov
49.5564523	16.5707648	347252	Letovice
50.1459808	15.3291717	530402	Choťovice
50.1526513	15.4073738	530303	Převýšov
48.8022487	16.6258751	348557	Mikulov na Moravě
50.0641786	14.2977628	540468	Praha-Zličín
50.6771592	14.5326057	568097	Česká Lípa - hlavní nádraží
49.3525292	16.6471477	330951	Blansko
49.1825563	15.4645899	749309	Telč
50.7734783	14.2012960	556597	Děčín hlavní nádraží
49.9894266	15.6426623	557439	Choltice
50.1834890	14.6552195	546465	Brandýs nad Labem
49.1539370	16.4841359	361857	Střelice
49.8579246	16.4972459	539338	Třebovice v Čechách
50.0128773	15.8975538	536532	Kostěnice
49.1719829	16.4088650	363754	Tetčice
49.1338882	16.6062266	349456	Modřice
49.1876144	16.3588463	369157	Zastávka u Brna
49.1080824	16.4628769	359752	Silůvky
49.0850502	16.4291829	349852	Moravské Bránice
48.8259270	16.4939528	354159	Novosedly
48.8234057	16.2877289	332254	Božice u Znojma
48.8413377	16.1643285	338251	Hodonice
48.7377646	16.8671284	332155	Boří les
48.9352605	16.3621972	348755	Miroslav
48.9845456	15.8746353	338053	Grešlové Mýto
48.9230771	15.8740514	363655	Šumná
48.9033525	15.9491330	354654	Olbramkostel
49.3471840	16.4185640	363952	Tišnov
49.4797967	16.6098504	359851	Skalice nad Svitavou
49.3654389	16.3085586	359455	Řikonín
49.0344786	16.5917077	339556	Hrušovany u Brna
48.9638139	16.6051211	368753	Vranovice
49.5626813	15.8477808	359653	Sázava u Žďáru
50.1997801	14.3644193	544361	Libčice nad Vltavou
50.2385412	14.3134087	543967	Kralupy nad Vltavou
48.8894007	16.7813802	369058	Zaječí
48.9127865	16.7065539	362459	Šakvice
49.5541842	15.9394144	370155	Žďár nad Sázavou
48.8373126	16.8537048	356055	Podivín
48.8898329	16.8233109	367656	Velké Pavlovice
48.8926737	17.1987762	358754	Rohatec
48.8561564	17.1223321	338459	Hodonín
48.8279350	17.0619916	348250	Lužice
48.7997435	17.0219136	349555	Moravská Nová Ves
48.7942595	16.8018130	347054	Lednice
48.7325536	16.9625220	346957	Lanžhot
48.9772972	17.3143448	351254	Moravský Písek
48.9765443	16.5157864	356550	Pohořelice
49.0463841	16.3380434	351056	Moravský Krumlov
49.0144440	16.3452933	358358	Rakšice
49.6114077	16.6907376	367557	Velké Opatovice
49.5541960	16.6995906	362855	Šebetov
49.4911908	16.6516703	332056	Boskovice
49.2068374	16.1479577	351759	Náměšť nad Oslavou
49.1923638	16.2034959	344655	Kralice nad Oslavou
49.1835979	16.2573104	358556	Rapotice
49.1331672	17.1141745	352450	Nemotice
49.1491108	17.0803012	352658	Nesovice
49.1457348	16.9997912	335059	Bučovice
49.1448679	16.8736951	361055	Slavkov u Brna
48.9880294	17.1666004	368357	Vlkoš
49.0162210	17.1233551	346759	Kyjov
48.9693005	17.2631505	336156	Bzenec
48.9490308	17.3821548	367953	Veselí nad Moravou
48.9366627	17.2896398	361758	Bzenec přívoz
48.8976864	17.3184808	370957	Strážnice
48.8717116	17.2433368	370858	Sudoměřice nad Moravou
48.8789790	17.5109012	371450	Velká nad Veličkou
48.9096243	17.4578929	371351	Lipov
48.9419613	16.9585927	336354	Čejč
48.9340088	16.8815139	342758	Kobylí na Moravě
49.5991813	15.5881118	542134	Havlíčkův Brod
49.6005540	15.6571074	356378	Pohled
49.5699937	15.7429031	357376	Přibyslav
49.3846707	16.0808811	345751	Křižanov
49.4371313	16.0541631	360552	Sklené nad Oslavou
49.4956605	15.9915841	355057	Ostrov nad Oslavou
49.0943237	15.8656150	341651	Jaroměřice nad Rokytnou
49.0573642	15.8094737	350058	Moravské Budějovice
49.6332551	16.5207351	334375	Březová nad Svitavou
49.8151736	16.4862232	543132	Opatov
49.7594491	16.4794493	543330	Svitavy
48.7477601	16.7429882	366559	Valtice
49.8366315	15.4677538	540831	Golčův Jeníkov
49.8044362	15.4048902	541045	Vlkaneč
49.7611628	15.3984952	541136	Leština u Světlé
49.6701950	15.4170613	541334	Světlá nad Sázavou
49.6304897	15.4877136	541938	Okrouhlice
49.9151159	15.3945738	540443	Čáslav
49.0981197	16.3719018	341255	Ivančice
49.4080888	16.6277047	358051	Rájec-Jestřebí
50.0949203	14.3461337	572669	Praha-Veleslavín
49.8377845	15.9949050	550137	Skuteč
49.2579330	17.9992674	351429	Valašská Polanka
49.5683858	16.0803352	353854	Nové Město na Moravě
49.5133782	16.2484038	335554	Bystřice nad Pernštejnem
49.4729269	16.2450001	359257	Rožná
50.5232008	13.5799150	534099	Třebušice
50.2835208	14.3087996	543660	Nelahozeves
50.0877565	14.4341890	572362	Praha Masarykovo nádraží
49.9278535	16.9385862	330423	Bludov
50.2893333	16.1525570	540104	Dobruška
49.9512384	15.6588816	557132	Heřmanův Městec
49.3311746	13.7387745	738658	Horažďovice předměstí
50.0806470	16.7564431	535005	Králíky
49.9085950	16.6033132	553537	Lanškroun
50.3949743	17.0155950	338624	Javorník ve Slezsku
49.9349665	18.0099851	337543	Kravaře ve Slezsku
50.7210876	15.1609453	550921	Jablonec nad Nisou
50.3564742	15.6348603	555805	Hořice v Podkrkonoší
50.8556642	14.8465159	575225	Hrádek nad Nisou
50.0972208	16.0859592	540500	Borohrádek
49.7429703	16.1615437	550731	Borová u Poličky
50.7752427	14.2235709	556894	Děčín východ
50.6463484	13.8294777	532895	Teplice v Čechách
50.0394159	15.5743193	535138	Přelouč
49.8748536	16.3041564	552133	Litomyšl
49.7206624	17.2862836	349423	Šternberk
50.5108663	13.6581666	533992	Most
49.4139552	14.6767603	736223	Tábor
49.5018519	17.1976695	353425	Vrbátky
49.0987463	17.7520761	347559	Luhačovice
49.0668629	17.4575031	365759	Uherské Hradiště
50.7613941	15.0468351	542126	Liberec
49.0760914	17.4230487	361451	Staré Město u Uherského Hradiště
50.3420340	15.9099307	567701	Jaroměř
49.9344685	17.9080495	341941	Opava východ
50.3955923	16.0537266	575001	Česká Skalice
50.2283753	17.1308985	340521	Lipová Lázně
50.0838432	14.2583234	536565	Hostivice
49.7187329	16.2640066	550632	Polička
49.0151405	14.0084318	738328	Prachatice
49.2554067	14.7256832	735720	Soběslav
50.6186721	15.6226139	572008	Vrchlabí
50.4108720	16.1006018	574806	Starkoč
49.0517311	17.4700640	345959	Kunovice
49.0324976	17.3753748	352054	Nedakonice
49.5508152	17.1179471	350629	Třebčín
49.4787052	17.1115789	357251	Prostějov místní nádraží
50.1045388	13.5981118	761247	Pšovlky
50.5107721	14.2674815	530899	Polepy
50.3281195	16.0959524	539106	Bohuslavice nad Metují
50.1048484	16.7838204	534800	Červený Potok
49.7149521	16.7243852	348375	Městečko Trnávka
49.7789917	17.1159160	351122	Uničov
49.7237024	17.0911579	333120	Červenka
49.8263060	15.9784260	548131	Žďárec u Skutče
49.9056358	16.2060249	552539	Cerekvice nad Loučnou
49.5941100	17.2414179	343723	Olomouc město
49.6377303	17.2016850	336420	Horka nad Moravou
49.6381771	17.1453673	347021	Příkazy
49.6215939	17.0998684	348623	Senice na Hané
49.0943580	18.0363462	334052	Brumov
49.1423727	18.0225516	366351	Valašské Klobouky
49.1890617	18.0580460	336529	Horní Lideč
49.4037326	15.5836515	342253	Jihlava město
48.7251510	14.4478019	752626	Omlenice
50.2427472	14.6344190	530246	Dřísy
50.0989893	16.9894351	339028	Jindřichov na Moravě
50.1470616	17.0147230	331124	Branná
50.2247321	17.0833681	337022	Horní Lipová
50.2275042	17.1935834	338921	Jeseník
50.3079251	17.1024960	355727	Žulová
50.2843415	17.0948533	352427	Vápenná
50.2594840	17.3833700	355222	Zlaté Hory
50.2484214	17.5384337	336446	Jindřichov ve Slezsku
50.1999669	17.5739642	348946	Třemešná ve Slezsku
50.1680802	17.5784039	340349	Město Albrechtice
49.6630266	17.2815568	330928	Bohuňovice
50.0318827	17.0423651	345421	Velké Losiny
50.0004052	17.0300284	345223	Petrov nad Desnou
49.7959243	17.6141216	330845	Budišov nad Budišovkou
49.7742545	17.7477231	350041	Vítkov
49.6695760	17.8334860	341644	Odry
50.1050134	17.4394038	353722	Karlovice
50.1177600	17.3876617	353623	Vrbno pod Pradědem
50.2403701	17.7149908	343145	Bohušov
49.6130788	17.3944594	336024	Hlubočky-Mariánské Údolí
49.5932415	17.3451497	352823	Velká Bystřice
50.5104557	13.4857975	534594	Kyjice
50.3360145	13.9591469	537076	Peruc
50.7952770	14.2330500	556092	Děčín-Prostřední Žleb
49.4201988	12.8396983	735555	Trhanov
50.1549136	15.5612682	530709	Káranice
50.1594907	15.6569084	530808	Dobřenice
50.1749106	15.7317980	531103	Praskačka
50.5183763	14.9783026	543512	Mnichovo Hradiště
50.4413971	15.1322705	559112	Dolní Bousov
50.4902984	15.3032277	553909	Libuň
50.5160936	15.4870843	566406	Stará Paka
50.5836952	15.6225766	569400	Kunčice nad Labem
50.6263422	16.2424465	537100	Meziměstí
50.0506654	12.9914386	734152	Toužim
50.1112952	14.9224047	530964	Poříčany
48.8118907	14.9230693	736421	Nová Ves nad Lužnicí
48.7696648	14.9578871	736322	České Velenice
49.9775181	15.8624433	555730	Úhřetice
49.9574834	15.7940455	555532	Chrudim město
49.8020517	12.6388725	756858	Tachov
49.4307510	13.8728415	747220	Blatná
49.5100090	14.0345550	730226	Mirovice
50.3951962	16.1219705	538801	Václavice
50.4731251	16.1770750	538207	Hronov
50.0897267	13.2069145	733451	Protivec
49.2232971	14.4085217	740522	Týn nad Vltavou
49.1536415	14.2218145	733527	Číčenice
49.2554527	13.9161835	761023	Strakonice
49.6424140	13.5171006	764050	Nezvěstice
49.6954641	13.4781767	739854	Starý Plzenec
49.7245493	13.4187269	739953	Plzeň-Koterov
49.7402712	13.3672676	746552	Plzeň-Jižní předměstí
50.1095931	16.2588537	532606	Doudleby nad Orlicí
50.1167590	16.2242575	532408	Kostelec nad Orlicí
50.2001961	15.9824587	531608	Třebechovice pod Orebem
50.2525470	15.8182271	568600	Předměřice nad Labem
49.5751951	13.3228239	753558	Přeštice
49.4737402	13.2907478	753954	Švihov u Klatov
49.8262525	13.5765977	741355	Stupno
49.8189525	13.3945747	750653	Třemošná u Plzně
50.6216919	15.8201905	572206	Svoboda nad Úpou
50.6001895	15.8727443	572404	Kalná Voda
50.5649935	15.9108438	570200	Trutnov hlavní nádraží
50.5776059	15.9454074	570408	Trutnov střed
50.5790038	15.9584751	570309	Trutnov-Poříčí
50.2562762	14.3764231	546069	Úžice
50.2400326	14.3378328	544064	Chvatěruby
50.2317505	14.2836917	539460	Kralupy nad Vltavou předměstí
50.2327366	14.2451973	539262	Olovnice
50.4581025	14.2297566	559492	Hrobce
50.9832939	14.2833390	565291	Dolní Poustevna
51.0062948	14.4615597	566190	Šluknov
50.8427572	14.5706143	567594	Jedlová
50.7692774	14.7582201	572099	Jablonné v Podještědí
50.7416962	14.5223815	567990	Skalice u České Lípy
50.6815428	14.6356465	571299	Zákupy
50.7533652	15.0329001	551523	Liberec-Horní Růžodol
50.7738691	14.9837900	551721	Karlov pod Ještědem
50.7512248	14.9185555	551820	Křižany
50.8759233	15.2060885	548529	Bílý Potok pod Smrkem
50.9389745	15.1510852	546226	Řasnice
50.8794605	15.1848273	548321	Hejnice
50.9589299	15.2541673	545723	Jindřichovice pod Smrkem
50.7121643	15.4231369	571109	Rokytnice nad Jizerou
50.3082933	13.3319267	535997	Vilémov u Kadaně
50.9247187	15.2244289	545624	Nové Město pod Smrkem
50.8325860	15.0650141	548628	Mníšek u Liberce
50.0931950	13.4715111	761643	Jesenice
50.0956850	13.6466655	761049	Senomaty
50.0564421	13.6290692	762047	Zavidov
50.0328949	13.5689940	762245	Čistá
50.0786273	13.6962271	761841	Lubná
48.7650577	14.0265624	759126	Horní Planá
48.8608487	13.8610500	739326	Černý Kříž
48.9072502	13.8832104	739128	Volary
48.9283590	13.7967347	752022	Lenora
49.0556817	13.7910511	751222	Vimperk
49.2012738	15.0505359	744920	Lovětín
49.2368768	15.0668753	745224	Nová Včelnice
49.2949253	15.0748824	745521	Kamenice nad Lipou
49.3738500	14.9653624	746024	Černovice u Tábora
50.5262022	14.0804457	531293	Velké Žernoseky
50.7263692	15.1490146	551127	Jablonec nad Nisou dolní nádraží
50.7699103	15.3656799	549121	Kořenov
50.6034428	15.3237451	565903	Semily
50.6340357	15.1917838	565523	Malá Skála
50.7434137	15.3113566	549527	Tanvald
50.2678704	12.8911686	734558	Sadov
50.3067797	12.8689250	734855	Hroznětín
50.3268389	12.8648441	735050	Merklín
50.2235185	13.4043592	752360	Podbořany
50.0551446	14.3777953	571067	Praha-Jinonice
50.7337186	14.1879097	560094	Boletice nad Labem
49.7117191	15.6837156	549238	Chotěboř
